City_ID,City,Lat,Lng,Max Temp,Humidity,Cloudiness,Wind Speed,Country,Date
0,Blackmans Bay,-43.0167,147.3167,12.07,78,100,3.02,AU,1684791736
1,Turabah,21.2141,41.6331,27.58,33,32,1.72,SA,1684791983
2,Qaqortoq,60.7167,-46.0333,-0.47,97,100,10.7,GL,1684791984
3,Nagqu Prefecture,31.5,92.0,-1.96,34,14,1.33,CN,1684791856
4,Hermanus,-34.4187,19.2345,14.33,61,100,2.98,ZA,1684791984
5,Iskateley,67.6803,53.1512,8.92,75,33,3.72,RU,1684791984
6,Walvis Bay,-22.9575,14.5053,12.83,100,2,1.03,NA,1684791985
7,Grytviken,-54.2811,-36.5092,4.62,98,100,2.75,GS,1684791985
8,Anadyr,64.75,177.4833,0.28,100,100,2.0,RU,1684791985
9,Labytnangi,66.6572,66.4183,9.65,81,12,3.51,RU,1684791985
10,Vielha e Mijaran,42.6846,0.7726,6.15,97,95,0.9,ES,1684791986
11,West Island,-12.1568,96.8225,24.99,94,13,0.0,CC,1684791986
12,Edinburgh of the Seven Seas,-37.0676,-12.3116,13.11,65,68,11.45,SH,1684791986
13,Avarua,-21.2078,-159.775,25.03,65,75,3.09,CK,1684791986
14,Puerto Ayora,-0.7393,-90.3518,27.98,96,36,3.78,EC,1684791987
15,Vadsø,70.0744,29.7487,7.49,87,40,5.14,NO,1684791987
16,Albany,42.6001,-73.9662,22.54,47,40,1.65,US,1684791914
17,Alice Springs,-23.7,133.8833,1.75,100,0,2.34,AU,1684791987
18,Invercargill,-46.4,168.35,9.54,85,99,5.64,NZ,1684791775
19,Nuuk,64.1835,-51.7216,1.34,75,75,4.63,GL,1684791987
20,Waitangi,-43.9535,-176.5597,13.79,96,6,0.45,NZ,1684791737
21,Northam,51.0333,-4.2167,12.99,77,6,3.62,GB,1684791868
22,Huanta,-12.9333,-74.25,24.22,52,57,2.51,PE,1684791988
23,Puerto Natales,-51.7236,-72.4875,-0.52,88,100,1.65,CL,1684791737
24,Adamstown,-25.066,-130.1015,24.4,84,100,10.29,PN,1684791988
25,Port-aux-Français,-49.35,70.2167,7.08,82,73,9.87,TF,1684791988
26,Huilong,31.8111,121.655,15.37,76,47,3.33,CN,1684791989
27,Bosa,40.2993,8.4983,17.05,90,86,1.65,IT,1684791989
28,Tchin Tabaradèn,15.8969,5.7985,33.49,27,99,3.75,NE,1684791989
29,Banda Aceh,5.5577,95.3222,26.85,82,97,0.3,ID,1684791989
30,Constanța,44.1833,28.65,16.38,88,17,4.91,RO,1684791990
31,Thompson,55.7435,-97.8558,19.09,39,100,4.12,CA,1684791990
32,Uruçuí,-7.2294,-44.5561,28.79,48,29,1.15,BR,1684791990
33,Ushuaia,-54.8,-68.3,4.81,56,20,1.54,AR,1684791939
34,Puerto Deseado,-47.7503,-65.8938,6.42,59,0,6.47,AR,1684791991
35,Praia da Vitória,38.7333,-27.0667,18.14,82,20,5.21,PT,1684791991
36,Pudozh,61.8099,36.5345,12.16,91,99,2.19,RU,1684791991
37,Puerto Baquerizo Moreno,-0.9,-89.6,27.55,78,40,5.14,EC,1684791747
38,Yuma,32.7253,-114.6244,37.91,15,0,6.36,US,1684791792
39,Mohr,54.3528,9.7167,14.52,91,100,3.6,DE,1684791992
40,Sauðarkrokur,65.7461,-19.6394,6.28,62,78,3.89,IS,1684791992
41,Kolyvan',55.3053,82.7391,6.79,48,7,3.21,RU,1684791993
42,Lázaro Cárdenas,17.9583,-102.2,30.91,62,1,5.47,MX,1684791980
43,Xinqing,48.2333,129.5,13.82,52,15,2.17,CN,1684791993
44,Polyarny,69.1989,33.4478,10.85,77,70,2.78,RU,1684791993
45,Olonkinbyen,70.9221,-8.7187,1.11,92,54,4.63,SJ,1684791994
46,Bethel,41.3712,-73.414,22.14,57,75,4.12,US,1684791994
47,Chemax,20.65,-87.9333,35.2,32,27,4.1,MX,1684791994
48,Santa Marta,11.2408,-74.199,31.03,74,40,6.17,CO,1684791786
49,Lauro de Freitas,-12.8944,-38.3272,28.01,69,75,6.17,BR,1684791995
50,Bamboo Flat,11.7,92.7167,27.05,89,20,1.03,IN,1684791870
51,Flying Fish Cove,-10.4217,105.6791,25.82,83,75,4.12,CX,1684791995
52,Xilin Hot,43.9667,116.0333,11.38,37,2,2.97,CN,1684791995
53,Baukau,51.5526,7.2042,17.81,83,4,2.68,DE,1684791996
54,Bilibino,68.0546,166.4372,3.09,96,100,1.19,RU,1684791996
55,Perşembe,41.0656,37.7714,14.68,92,100,0.63,TR,1684791996
56,Birgunj,27.0104,84.8774,30.09,49,32,5.77,NP,1684791996
57,Līsakovsk,52.5369,62.4936,15.25,49,15,3.32,KZ,1684791997
58,Punta Arenas,-53.15,-70.9167,3.06,75,0,5.14,CL,1684791734
59,Bengkulu,-3.8004,102.2655,23.9,92,57,1.72,ID,1684791818
60,Enewetak,11.3474,162.3373,27.77,77,100,6.84,MH,1684791997
61,Mermoz Boabab,14.7065,-17.4758,23.31,83,0,7.2,SN,1684791997
62,Hawaiian Paradise Park,19.5933,-154.9731,25.57,90,75,5.14,US,1684791998
63,Nuriootpa,-34.4833,139.0,10.86,87,85,0.46,AU,1684791998
64,Lebu,-37.6167,-73.65,12.56,87,100,7.98,CL,1684791998
65,Mejit,10.2753,170.8646,27.79,81,93,7.82,MH,1684791998
66,Tôlanaro,-25.0319,46.9987,22.04,78,40,3.09,MG,1684791998
67,Happy Valley-Goose Bay,53.3168,-60.3315,7.17,42,40,6.69,CA,1684791830
68,Harstad,68.799,16.5293,14.58,65,23,4.02,NO,1684791999
69,Bredasdorp,-34.5322,20.0403,13.2,59,100,1.52,ZA,1684791999
70,Pacocha,-17.5833,-71.3333,21.08,78,75,3.6,PE,1684791999
71,Mahina,-17.5065,-149.489,29.87,70,40,1.54,PF,1684791999
72,Rémire-Montjoly,4.9167,-52.2667,25.02,94,75,0.0,GF,1684791843
73,Sitka,57.0531,-135.33,11.94,58,40,4.12,US,1684792000
74,Nova Sintra,14.8667,-24.7167,20.86,81,100,5.52,CV,1684791796
75,Hamilton,39.1834,-84.5333,27.31,40,20,3.6,US,1684791795
76,Ust'-Kulom,61.6864,53.6902,10.85,68,85,0.29,RU,1684792000
77,Touros,-5.1989,-35.4608,26.37,81,42,6.01,BR,1684792000
78,Yerofey Pavlovich,53.9667,121.9667,9.9,80,100,1.71,RU,1684792000
79,Shelton,41.3165,-73.0932,21.91,63,0,5.14,US,1684792000
80,Port Elizabeth,-33.918,25.5701,15.16,78,0,5.14,ZA,1684792000
81,Kas,36.2018,29.6377,18.54,75,44,4.41,TR,1684792000
82,Sechura,-5.5569,-80.8222,27.92,60,38,6.65,PE,1684792001
83,Santa Maria,-29.6842,-53.8069,20.61,83,75,2.06,BR,1684792001
84,Ribeira Grande,38.5167,-28.7,17.65,80,8,4.47,PT,1684792001
85,Longyearbyen,78.2186,15.6401,3.91,81,75,6.17,SJ,1684792001
86,Smithers,54.7804,-127.1743,11.18,62,100,4.63,CA,1684792001
87,Port Alfred,-33.5906,26.891,14.63,68,100,5.35,ZA,1684791739
88,Hakha,22.65,93.6167,14.39,78,0,1.27,MM,1684792001
89,Lautoka,-17.6167,177.4667,26.92,78,20,2.57,FJ,1684792001
90,Dudinka,69.4058,86.1778,0.9,98,100,8.38,RU,1684792002
91,Laoang,12.5,125.0167,24.41,94,16,0.98,PH,1684792002
92,Tura,25.5198,90.2201,21.42,88,69,1.95,IN,1684791842
93,Dakhla,23.6848,-15.958,20.01,77,100,6.17,EH,1684792002
94,Isafjordur,66.0755,-23.124,5.68,64,89,2.39,IS,1684792002
95,Ambodifotatra,-16.9833,49.85,25.3,80,41,3.89,MG,1684792002
96,Margaret River,-33.95,115.0667,16.59,85,98,4.84,AU,1684792002
97,Ruíz,21.95,-105.15,35.85,29,0,5.14,MX,1684792002
98,Senanga,-16.1167,23.2667,17.92,32,26,2.41,ZM,1684792003
99,Wynyard,-41.0,145.7167,9.99,85,100,2.95,AU,1684792003
100,Pangody,65.85,74.4859,5.37,90,67,4.32,RU,1684792003
101,Qalāt,32.1058,66.9083,24.18,27,98,1.43,AF,1684792003
102,Ivolginsk,51.7492,107.2837,8.81,66,20,0.0,RU,1684792003
103,Arkhara,49.4212,130.0842,13.59,61,1,1.22,RU,1684792003
104,College,64.8569,-147.8028,10.97,76,100,3.6,US,1684791721
105,New Norfolk,-42.7826,147.0587,12.72,73,100,0.45,AU,1684792003
106,Iqaluit,63.7506,-68.5145,-6.15,57,100,3.6,CA,1684792003
107,Egilsstadir,65.2653,-14.3948,7.95,49,0,5.14,IS,1684792004
108,Udachny,66.4167,112.4,0.25,63,94,3.79,RU,1684792004
109,Port Augusta,-32.5,137.7667,9.44,80,52,0.87,AU,1684792004
110,Zaozërsk,69.4005,32.4476,9.16,85,58,1.42,RU,1684792004
111,Whitehorse,60.7161,-135.0538,14.5,29,75,5.66,CA,1684792004
112,Padang,-0.9492,100.3543,25.02,90,100,1.63,ID,1684792004
113,Calingasta,-31.3308,-69.4078,17.32,21,75,3.47,AR,1684792004
114,Domna,51.8971,113.1573,8.09,49,20,1.0,RU,1684792005
115,Cabedelo,-6.9811,-34.8339,26.37,85,9,5.38,BR,1684792005
116,Pampa del Indio,-26.0647,-59.919,23.36,81,100,2.17,AR,1684792005
117,Kuala Belait,4.5833,114.1833,25.09,90,95,1.81,BN,1684792005
118,Hadibu,12.65,54.0333,29.26,70,95,1.23,YE,1684792005
119,Richards Bay,-28.783,32.0377,15.66,81,48,2.18,ZA,1684791821
120,Nuestra Señora del Rosario de Caa Catí,-27.7507,-57.6207,20.67,87,35,2.11,AR,1684792005
121,Iguape,-24.7081,-47.5553,20.03,84,63,3.49,BR,1684792005
122,Santa Terezinha,-29.9002,-50.0904,19.36,84,84,2.3,BR,1684792005
123,Haiku-Pauwela,20.9219,-156.3051,27.32,61,40,9.77,US,1684791807
124,Wuwei,37.9281,102.6414,16.18,45,100,1.77,CN,1684792006
125,Saipan,15.1355,145.701,28.39,100,100,6.17,MP,1684792006
126,Jabor,5.921,169.6434,28.37,79,98,5.17,MH,1684792006
127,Callao,-12.0667,-77.15,24.16,69,40,5.14,PE,1684791876
128,Quaraí,-30.3875,-56.4514,18.19,91,47,2.4,BR,1684792006
129,Kumul,42.8,93.45,16.64,56,77,3.62,CN,1684792006
130,Vilyuysk,63.7553,121.6247,2.7,45,100,2.13,RU,1684792006
131,Tromsø,69.6496,18.957,11.01,50,0,3.6,NO,1684791756
132,Gadzhiyevo,69.2551,33.3362,10.39,79,69,2.55,RU,1684792007
133,Garoowe,8.4054,48.4845,26.31,74,41,4.32,SO,1684792007
134,Alofi,-19.0595,-169.9187,25.94,65,40,3.6,NU,1684792007
135,Wailua Homesteads,22.0669,-159.378,26.44,70,40,6.17,US,1684791765
136,Béjaïa,36.7559,5.0843,16.6,88,20,1.54,DZ,1684792007
137,Beryozovo,63.9381,65.0419,11.76,50,0,1.46,RU,1684792007
138,Oppdal,62.5943,9.6912,8.99,95,90,2.79,NO,1684792007
139,Demyansk,57.643,32.466,9.23,84,68,2.6,RU,1684792007
140,George Town,5.4112,100.3354,26.97,78,20,1.03,MY,1684792007
141,Papatowai,-46.5619,169.4708,9.64,78,100,3.96,NZ,1684792008
142,Kaithal,29.8,76.3833,32.79,25,93,1.56,IN,1684792008
143,Slantsy,59.1182,28.0914,9.52,86,74,1.79,RU,1684792008
144,Juegang,32.3174,121.1855,15.0,69,31,3.0,CN,1684792008
145,Spring Creek,40.7266,-115.5859,25.83,25,33,5.52,US,1684792008
146,Ilebo,-4.3167,20.5833,20.91,98,100,0.37,CD,1684792008
147,Minas de Marcona,-15.2119,-75.1103,16.88,71,50,5.89,PE,1684792008
148,Vila Franca do Campo,37.7167,-25.4333,17.23,90,57,2.26,PT,1684792008
149,Keflavik,64.0049,-22.5624,7.95,100,100,6.17,IS,1684792008
150,Uturoa,-16.7333,-151.4333,27.67,76,22,6.01,PF,1684791765
151,San Ildefonso,15.0809,120.941,27.77,88,25,1.12,PH,1684792009
152,Mbandaka,0.0487,18.2603,20.99,98,72,0.57,CD,1684792009
153,Oranjestad,12.524,-70.027,29.97,80,20,5.14,AW,1684791943
154,Bossangoa,6.4926,17.4552,22.92,91,75,2.43,CF,1684792009
155,Vorkuta,67.5,64.0,4.75,96,45,1.13,RU,1684792009
156,Macaé,-22.3708,-41.7869,22.86,88,20,3.09,BR,1684792009
157,Kidal,18.4411,1.4078,35.7,12,100,6.57,ML,1684792009
158,Douz,33.4663,9.0203,22.76,46,10,9.24,TN,1684792009
159,Qoryooley,1.7878,44.53,25.45,91,24,4.15,SO,1684792010
160,Oranjemund,-28.55,16.4333,12.69,88,96,1.84,NA,1684792010
161,Masterton,-40.9597,175.6575,13.27,81,1,0.24,NZ,1684792010
162,Dryden,49.7833,-92.7503,21.16,43,0,3.6,CA,1684791752
163,Sovetskaya Gavan',48.9723,140.2878,7.05,75,6,0.81,RU,1684792010
164,Suncho Corral,-27.9336,-63.4294,22.77,66,66,5.03,AR,1684792010
165,La Ronge,55.1001,-105.2842,21.14,35,75,3.6,CA,1684792010
166,Tewantin,-26.3833,153.0333,13.31,72,1,2.37,AU,1684792010
167,Cabo San Lucas,22.8909,-109.9124,34.17,21,0,1.54,MX,1684792010
168,Queenstown,-31.8976,26.8753,5.13,70,99,0.61,ZA,1684791774
169,Kudymkar,59.0173,54.656,10.85,92,81,1.43,RU,1684792011
170,Mossamedes,-15.1961,12.1522,21.51,76,1,2.7,AO,1684791799
171,Port-Vila,-17.7338,168.3219,22.78,100,100,4.63,VU,1684792011
172,Novobelokatay,55.7062,58.9549,12.03,56,10,1.57,RU,1684792011
173,Vorgashor,67.5833,63.95,3.89,97,39,1.4,RU,1684792011
174,São Félix do Xingu,-6.6447,-51.995,25.0,83,14,1.28,BR,1684792011
175,Hudson,40.7168,-74.0663,24.14,58,0,7.2,US,1684791908
176,Mont-Dore,-22.2833,166.5833,23.33,99,97,5.39,NC,1684792012
177,Tiksi,71.6872,128.8694,-7.14,88,29,2.44,RU,1684792012
178,Inhambane,-23.865,35.3833,20.55,75,41,4.47,MZ,1684792012
179,Vilyuchinsk,52.9306,158.4028,1.15,97,100,6.35,RU,1684791760
180,Suva,-18.1416,178.4415,26.71,83,20,1.03,FJ,1684791728
181,Yellowknife,62.456,-114.3525,16.29,33,20,3.09,CA,1684792012
182,Mount Pearl,47.5166,-52.7813,3.8,89,100,6.17,CA,1684792012
183,Taoudenni,22.6783,-3.9836,31.2,14,30,3.77,ML,1684792012
184,Imam Qasim,32.298,44.6828,28.03,18,83,5.34,IQ,1684792012
185,Petropavlovsk-Kamchatskiy,53.0452,158.6483,0.33,100,100,4.0,RU,1684792013
186,Ta`ū,-14.2336,-169.5144,27.31,79,58,2.0,AS,1684792013
187,Mount Isa,-20.7333,139.5,4.87,70,5,1.54,AU,1684792013
188,Naryan-Mar,67.6713,53.087,8.99,75,33,3.72,RU,1684792013
189,Wellington,-41.2866,174.7756,11.98,97,0,1.03,NZ,1684791500
190,Biltine,14.5333,20.9167,32.49,29,9,1.92,TD,1684792013
191,Saltillo,25.4167,-101.0,26.92,36,40,7.72,MX,1684791830
192,Truckee,39.328,-120.1833,26.71,25,20,8.23,US,1684791917
193,Shalqar,47.8333,59.6,18.74,29,91,7.86,KZ,1684792013
194,Kitob,39.0843,66.8332,23.96,30,100,2.18,UZ,1684792014
195,Kavalerovo,44.2661,135.0572,10.13,85,1,1.28,RU,1684792014
196,Maymana,35.9214,64.7836,25.66,28,99,2.51,AF,1684792014
197,Upington,-28.4478,21.2561,14.17,25,86,3.63,ZA,1684792014
198,Tangalle,6.024,80.7911,26.09,90,27,3.3,LK,1684792014
199,Auki,-8.7676,160.7034,28.02,76,98,1.86,SB,1684792014
200,Kourou,5.1552,-52.6478,25.03,90,99,3.94,GF,1684791860
201,Chibuto,-24.6867,33.5306,16.13,90,19,2.05,MZ,1684792014
202,Saint Paul Harbor,57.79,-152.4072,6.73,93,100,12.35,US,1684792015
203,Cruzeiro do Sul,-29.5128,-51.9853,20.28,90,21,0.76,BR,1684792015
204,Viedma,-40.8135,-62.9967,13.06,42,35,3.31,AR,1684792015
205,Nevinnomyssk,44.6267,41.9453,12.99,94,12,1.97,RU,1684792015
206,Talnakh,69.4865,88.3972,0.67,99,100,4.46,RU,1684791741
207,Prey Veng,11.4868,105.3253,26.55,76,100,2.02,KH,1684792015
208,Lompoc,34.6391,-120.4579,27.05,79,75,3.6,US,1684792016
209,Gualeguay,-33.1416,-59.3097,18.28,91,100,2.31,AR,1684792016
210,Itoman,26.1247,127.6694,22.21,88,75,11.32,JP,1684792016
211,As Suwayq,23.8494,57.4386,32.64,43,34,1.35,OM,1684792016
212,Kingston,17.997,-76.7936,30.53,78,75,4.12,JM,1684792016
213,Dunedin,-45.8742,170.5036,9.33,82,100,0.45,NZ,1684792016
214,Kampong Cham,11.9934,105.4635,25.45,81,100,1.25,KH,1684792016
215,Kyustendil,42.2839,22.6911,11.09,91,32,1.76,BG,1684792016
216,Qūchān,37.106,58.5095,17.99,55,16,0.41,IR,1684792017
217,Hafar Al-Batin,28.4328,45.9708,31.32,33,75,14.4,SA,1684792017
218,Caçapava do Sul,-30.5122,-53.4914,14.97,94,51,1.23,BR,1684792017
219,Orkney,-26.9802,26.6727,11.65,36,30,1.45,ZA,1684792017
220,Kupang,-10.1667,123.5833,23.43,80,46,4.8,ID,1684792017
221,Ratnagiri,16.9833,73.3,27.29,84,5,3.37,IN,1684792017
222,Nikolayevsk-on-Amur,53.1406,140.73,9.15,56,3,1.22,RU,1684792017
223,Katima Mulilo,-17.5,24.2667,17.81,31,7,2.0,NA,1684792017
224,Healesville,-37.65,145.5167,11.86,97,81,1.35,AU,1684792018
225,Fale old settlement,-9.3852,-171.2468,28.57,75,77,5.82,TK,1684792018
226,Barcelos,41.5388,-8.6151,19.91,67,85,2.16,PT,1684792018
227,Bulungu,-4.55,18.6,21.55,98,97,0.71,CD,1684792018
228,Lihue,21.9789,-159.3672,26.77,72,40,6.17,US,1684792018
229,Usogorsk,63.4106,48.6872,13.2,61,98,1.57,RU,1684792018
230,Isiro,2.7739,27.616,20.02,100,80,1.42,CD,1684792018
231,Taksimo,56.3444,114.8794,9.94,65,51,1.19,RU,1684791781
232,Ghat,24.9647,10.1728,29.3,5,47,2.77,LY,1684792019
233,Navoiy,40.0844,65.3792,26.71,22,100,4.12,UZ,1684792019
234,Mikhaylovskoye,51.8239,79.7172,13.05,49,34,3.16,RU,1684792019
235,Toliara,-23.35,43.6667,20.74,77,1,1.97,MG,1684792019
236,Coquimbo,-29.9533,-71.3436,16.85,88,75,3.09,CL,1684791798
237,Cape Canaveral,28.4058,-80.6048,28.04,83,20,5.66,US,1684792019
238,Muragācha,23.5333,88.4,28.26,82,14,4.3,IN,1684792019
239,Adrar,20.5022,-10.0711,28.64,18,21,5.93,MR,1684792020
240,Chul'man,56.8479,124.9104,2.21,95,97,1.84,RU,1684792020
241,Conde,-7.2597,-34.9075,25.7,89,20,2.57,BR,1684791850
242,Dzhezkazgan,47.7833,67.7667,14.32,43,32,4.46,KZ,1684792020
243,Benisheikh,11.8072,12.4909,30.22,45,25,3.06,NG,1684792020
244,Butajīra,8.1167,38.3667,16.3,73,26,1.49,ET,1684792020
245,Saint-Philippe,-21.3585,55.7679,23.77,76,9,1.4,RE,1684792020
246,Arti,56.4234,58.5328,12.88,54,41,1.2,RU,1684792020
247,Ridder,50.355,83.5133,5.37,79,7,2.72,KZ,1684792020
248,Korwai,24.1167,78.0419,31.97,28,5,3.39,IN,1684792021
249,Coahuayana de Hidalgo,18.7,-103.6583,32.61,52,59,3.36,MX,1684792021
250,Las Heras,-46.5419,-68.9359,4.55,49,51,4.0,AR,1684792021
251,Port Lincoln,-34.7333,135.8667,13.68,75,100,4.09,AU,1684791760
252,Opuwo,-18.0607,13.84,17.33,46,1,1.69,NA,1684792021
253,Parintins,-2.6283,-56.7358,25.21,92,24,1.27,BR,1684792021
254,Bentiu,9.2333,29.8333,33.97,28,88,1.89,SS,1684792021
255,Atafu Village,-8.5421,-172.5159,28.34,76,68,4.47,TK,1684792022
256,Kharp,66.8014,65.8081,8.88,84,23,3.8,RU,1684792022
257,Codrington,-38.2667,141.9667,11.89,72,100,4.02,AU,1684792022
258,Port Mathurin,-19.6833,63.4167,24.77,71,3,2.77,MU,1684791749
259,Sept-Îles,50.2001,-66.3821,7.29,63,20,5.14,CA,1684792023
260,Kangar,6.4414,100.1986,23.98,88,97,1.71,MY,1684792023
261,Yung Shue Wan,22.2333,114.1167,28.75,85,100,4.34,HK,1684792023
262,Fort McMurray,56.7268,-111.381,19.77,59,100,5.14,CA,1684791875
263,Wagar,16.1525,36.2032,30.36,41,0,5.13,SD,1684792024
264,Mitsamiouli,-11.3847,43.2844,26.63,76,18,3.2,KM,1684792024
265,Arrondissement de Verdun,49.25,5.3333,16.2,96,100,2.46,FR,1684792024
266,Susuman,62.7833,148.1667,3.71,71,98,1.2,RU,1684792024
267,Bandarbeyla,9.4942,50.8122,27.11,85,43,4.04,SO,1684792025
268,Pingliang,35.5392,106.6861,8.78,49,100,2.12,CN,1684792025
269,Danielskuil,-28.1887,23.5395,10.87,32,64,3.22,ZA,1684792026
270,Stanley,54.868,-1.6985,9.88,88,0,0.51,GB,1684792026
271,Hammerfest,70.6634,23.6821,11.25,62,0,2.06,NO,1684792027
272,Freetown,8.484,-13.2299,27.84,78,75,4.12,SL,1684792008
273,Kapaa,22.0752,-159.319,27.18,72,40,6.17,US,1684792027
274,Priozersk,61.0393,30.1291,11.64,88,44,2.51,RU,1684792027
275,Carnarvon,-24.8667,113.6333,19.69,42,100,2.7,AU,1684792028
276,Hithadhoo,-0.6,73.0833,28.4,70,0,1.12,MV,1684792028
277,El Matama,16.7095,33.3565,32.63,12,0,5.27,SD,1684792028
278,Zaraza,9.3503,-65.3245,24.57,89,100,1.0,VE,1684792028
279,Tandil,-37.3217,-59.1332,14.27,95,78,1.41,AR,1684792029
280,Vilhena,-12.7406,-60.1458,28.12,69,40,1.03,BR,1684791976
281,Tarauacá,-8.1614,-70.7656,25.82,91,94,1.15,BR,1684792030
282,Geraldton,-28.7667,114.6,13.23,54,100,7.2,AU,1684792030
283,Tibanbang,6.6315,126.1055,27.37,81,81,3.79,PH,1684792030
284,Okahandja,-21.9833,16.9167,17.45,24,9,1.79,NA,1684792031
285,Galliano,29.4422,-90.2992,31.67,51,75,2.06,US,1684792031
286,Saldanha,-33.0117,17.9442,12.03,78,100,4.42,ZA,1684791754
287,Kapuskasing,49.4169,-82.4331,20.05,22,75,3.09,CA,1684792032
288,Kangaba,11.9333,-8.4167,30.09,52,90,1.53,ML,1684792032
289,Lorengau,-2.0226,147.2712,28.16,77,91,7.06,PG,1684792032
290,Lloydminster,53.2835,-110.0016,27.12,32,75,5.66,CA,1684791958
291,Sinop Province,41.7711,34.8709,11.39,96,80,0.57,TR,1684792032
292,Moab,38.5733,-109.5498,28.03,24,55,0.89,US,1684792033
293,Inderbor,48.55,51.7833,20.41,52,100,5.82,KZ,1684792033
294,Zhigalovo,54.8097,105.1578,7.97,76,14,1.14,RU,1684792033
295,Ilulissat,69.2167,-51.1,0.01,69,0,8.23,GL,1684792033
296,Coari,-4.085,-63.1414,26.05,91,55,1.64,BR,1684792034
297,Wotho,10.1657,166.0102,27.26,82,74,4.84,MH,1684792034
298,Long Beach,33.767,-118.1892,26.84,81,100,3.6,US,1684791518
299,Nieuw Amsterdam,5.8833,-55.0833,28.01,84,40,2.06,SR,1684792034
300,Silver City,32.7701,-108.2803,27.98,18,40,4.63,US,1684792035
301,Taungdwingyi,20.0167,95.55,27.67,64,7,2.76,MM,1684792035
302,Chonchi,-42.6128,-73.8092,9.51,87,100,4.48,CL,1684792035
303,Natal,-5.795,-35.2094,27.36,83,20,4.63,BR,1684791911
304,Teknāf,20.8624,92.3058,26.34,89,1,0.71,BD,1684792036
305,Ambalavao,-21.8333,46.9333,13.17,69,0,0.41,MG,1684791818
306,Arauca,7.0847,-70.7591,27.98,78,75,2.57,CO,1684792036
307,Charters Towers,-20.1,146.2667,14.99,54,22,3.61,AU,1684792037
308,Zheleznogorsk,52.331,35.3711,12.53,91,100,3.02,RU,1684792037
309,Safaga,26.7292,33.9365,28.95,45,75,2.6,EG,1684792037
310,Altay,47.8667,88.1167,7.9,67,5,2.67,CN,1684792037
311,Huarmey,-10.0681,-78.1522,23.71,73,25,4.46,PE,1684791764
312,Masuguru,-11.3667,38.4167,23.66,83,95,1.84,TZ,1684792038
313,Copiapó,-27.3667,-70.3333,15.83,35,5,2.01,CL,1684792038
314,Baoshan,46.5586,131.4244,14.33,66,16,2.49,CN,1684792038
315,Rakops,-21.0167,24.3333,20.36,26,17,3.3,BW,1684792038
316,Broken Hill,-31.95,141.4333,8.15,72,1,0.91,AU,1684792039
317,Chilmāri,25.5559,89.6715,24.8,84,26,3.37,BD,1684792039
318,Dvinskoy Bereznik,62.8551,42.7072,15.61,64,100,1.87,RU,1684792039
319,Portage la Prairie,49.9728,-98.2926,28.29,37,26,1.79,CA,1684792040
320,Mar del Plata,-38.0023,-57.5575,16.16,98,100,0.0,AR,1684791855
321,Papao,-17.75,-149.55,29.82,80,6,7.64,PF,1684792040
322,Nema,57.5067,50.5011,12.82,83,100,2.93,RU,1684792040
323,Pisco,-13.7,-76.2167,24.03,64,0,5.66,PE,1684792014
324,Lerwick,60.1545,-1.1494,9.0,82,4,5.94,GB,1684792041
325,Porto-Novo,6.4965,2.6036,27.9,80,88,2.74,BJ,1684792041
326,Badger,64.8,-147.5333,10.93,74,75,3.6,US,1684791823
327,Wanxian,30.8039,108.3897,15.71,95,100,0.58,CN,1684792042
328,Suomussalmi,64.8869,28.9078,13.32,65,100,2.35,FI,1684792042
329,Kununurra,-15.7667,128.7333,15.99,48,0,2.57,AU,1684791810
330,Murzuk,25.9155,13.9184,27.04,13,3,4.46,LY,1684792043
331,Pahrump,36.2083,-115.9839,33.03,28,59,4.53,US,1684792043
332,Crane,31.3974,-102.3501,31.96,28,8,5.63,US,1684792043
333,Erekli,40.97,27.9553,15.05,88,75,4.12,TR,1684792043
334,Idrī,27.5,13.2667,25.74,14,1,5.24,LY,1684792044
335,Veliko Tarnovo,43.0812,25.629,12.88,100,40,0.0,BG,1684792044
336,Pangai,-19.8,-174.35,26.06,69,20,4.63,TO,1684792044
337,Khromtau,50.2503,58.4347,13.11,49,2,4.17,KZ,1684792045
338,Ancud,-41.8697,-73.8203,9.97,81,100,7.53,CL,1684792045
339,Maile,-38.9466,-72.3727,11.34,92,100,3.44,CL,1684792045
340,Wenling,28.3669,121.36,15.9,83,11,2.99,CN,1684792045
341,Salekhard,66.53,66.6019,9.76,82,8,3.66,RU,1684792046
342,Jamestown,42.097,-79.2353,22.51,44,0,5.14,US,1684791850
343,Ulanhot,46.0833,122.0833,16.13,35,1,1.71,CN,1684792046
344,Uthal,25.8072,66.6219,27.97,84,77,2.7,PK,1684792046
345,Tabou,4.423,-7.3528,27.34,84,25,3.55,CI,1684792047
346,Qingshuping,27.3817,112.0221,14.11,91,45,1.02,CN,1684792047
347,Tevriz,57.509,72.4042,11.01,62,21,1.78,RU,1684792048
348,Trincomalee,8.5711,81.2335,26.31,86,8,5.22,LK,1684792048
349,Faya-Largeau,17.9257,19.1043,35.01,16,20,2.27,TD,1684792048
350,Mount Gambier,-37.8333,140.7667,11.73,73,100,2.65,AU,1684791780
351,Ishikawa,26.4233,127.8214,22.18,83,100,6.71,JP,1684792048
352,Kaa-Khem,51.6833,94.7333,9.29,65,96,2.12,RU,1684792049
353,Faaa,-17.55,-149.6,29.98,70,40,2.24,PF,1684791929
354,Saminaka,10.414,8.6828,25.42,67,68,1.97,NG,1684792049
355,Stephenville,32.2207,-98.2023,28.85,48,0,2.06,US,1684792049
356,Kirensk,57.7853,108.1119,6.14,78,95,0.77,RU,1684792050
357,Sinjai,-5.1241,120.253,23.59,92,30,0.76,ID,1684792050
358,Namdrik,5.5994,168.1028,28.18,76,74,4.92,MH,1684792050
359,Buckie,57.6757,-2.9624,9.88,75,100,5.39,GB,1684792050
360,Río Gallegos,-51.6226,-69.2181,4.03,60,0,5.66,AR,1684792050
361,Molalla,45.1473,-122.577,17.23,55,100,3.58,US,1684791872
362,Lā‘ie,21.6477,-157.9253,28.98,78,83,1.79,US,1684792051
363,Bac Lieu,9.285,105.7244,27.46,80,61,3.05,VN,1684792051
364,Luena,-11.7833,19.9167,20.1,49,95,2.57,AO,1684792052
365,Ust-Nera,64.5667,143.2,3.62,77,98,1.18,RU,1684792052
366,Trignac,47.3167,-2.1833,17.15,79,0,4.63,FR,1684792052
367,Rawson,-43.3002,-65.1023,11.44,62,42,5.42,AR,1684792053
368,Plettenberg Bay,-34.0527,23.3716,14.37,56,100,2.31,ZA,1684792053
369,Yunak,38.8142,31.7322,12.12,82,100,0.7,TR,1684792053
370,Nemuro,43.3236,145.575,5.55,87,98,3.53,JP,1684792053
371,Rechka Vydrino,51.485,104.8461,7.74,75,76,2.93,RU,1684792054
372,Wichian Buri,15.6578,101.106,27.77,70,93,1.61,TH,1684792054
373,Tarko-Sale,64.9225,77.785,6.21,82,75,5.24,RU,1684792054
374,Nantucket,41.2835,-70.0995,13.94,79,0,7.72,US,1684792055
375,Huedin,46.8667,23.05,12.23,77,0,2.47,RO,1684792055
376,Vaasa,63.096,21.6158,11.27,64,0,2.24,FI,1684792055
377,Chamdo,31.1667,97.2333,-0.9,50,50,1.2,CN,1684792055
378,Alakurtti,66.9672,30.3491,13.32,67,65,2.36,RU,1684792056
379,La Passe,45.5549,-0.8967,18.13,94,98,3.93,FR,1684792056
380,Mont-Tremblant,46.1949,-74.6264,16.77,23,0,0.51,CA,1684791887
381,Puerto Rico,-26.796,-55.024,19.87,85,6,1.4,AR,1684791790
382,Tucupita,9.0622,-62.051,22.48,99,100,1.96,VE,1684792030
383,Rio Grande,-32.035,-52.0986,21.06,80,85,3.97,BR,1684792057
384,Maintirano,-18.0667,44.0167,22.72,75,0,4.87,MG,1684792057
385,Abancay,-13.6339,-72.8814,19.64,58,38,1.78,PE,1684792057
386,Aasiaat,68.7098,-52.8699,-1.15,79,38,5.19,GL,1684792057
387,Berdigestyakh,62.0989,126.6992,1.71,45,29,2.35,RU,1684792057
388,Machico,32.7,-16.7667,18.35,63,40,5.14,PT,1684792058
389,Mergen,49.1833,125.2167,16.21,41,19,2.84,CN,1684791794
390,Likiep,9.8251,169.3107,28.08,80,99,5.84,MH,1684792058
391,Khāsh,28.2211,61.2158,23.28,37,83,2.35,IR,1684792058
392,Bajil,15.0584,43.2851,33.05,48,43,0.91,YE,1684792059
393,Ketchikan,55.3422,-131.6461,16.26,39,0,5.66,US,1684792059
394,Genhe,50.7833,121.5167,11.99,39,84,1.56,CN,1684792059
395,Kampong Chhnang,12.1667,104.55,24.84,82,100,1.6,KH,1684792060
396,Mālvan,16.0667,73.4667,28.64,79,69,4.51,IN,1684792060
397,Kolonia Town,6.964,158.206,27.0,83,100,0.0,FM,1684792060
398,Greenland,43.0362,-70.8328,18.78,63,40,5.66,US,1684792060
399,Afaahiti,-17.75,-149.2833,28.93,77,4,7.0,PF,1684791814
400,Severo-Yeniseyskiy,60.3725,93.0408,2.77,90,55,1.93,RU,1684792060
401,Arraial do Cabo,-22.9661,-42.0278,22.92,83,40,4.12,BR,1684791786
402,Borovskoy,53.8,64.15,15.29,49,55,2.26,KZ,1684792061
403,Eraan,9.0629,117.7016,26.12,84,94,1.7,PH,1684792061
404,Eydhafushi,5.1033,73.0708,28.23,75,36,1.89,MV,1684792061
405,Guiglo,6.5456,-7.4966,23.59,96,68,1.09,CI,1684792061
406,Port Blair,11.6667,92.75,27.02,89,20,1.03,IN,1684792061
407,Buala,-8.145,159.5921,28.39,76,64,2.09,SB,1684792061
408,Salahonda,2.1019,-78.7217,27.52,78,35,4.78,CO,1684792062
409,Cole Harbour,44.6724,-63.4751,13.43,62,100,3.13,CA,1684792063
410,Shenjiamen,29.9576,122.298,16.55,79,7,7.22,CN,1684792063
411,Castillos,-34.1667,-53.8333,17.64,82,46,1.29,UY,1684792063
412,Nybro,56.7446,15.9071,11.14,70,51,1.5,SE,1684792063
413,Kailua-Kona,19.6406,-155.9956,25.98,87,100,4.63,US,1684791817
414,Tanjung Pinang,0.9167,104.45,27.1,81,8,2.03,ID,1684792063
415,Utrik,11.2278,169.8474,27.79,80,93,7.5,MH,1684792064
416,Misratah,32.3754,15.0925,18.98,77,0,2.74,LY,1684792064
417,Igarka,67.4667,86.5833,2.23,98,100,7.18,RU,1684792064
418,The Pas,53.8251,-101.2541,24.01,38,0,3.09,CA,1684791798
419,Sinabang,2.4803,96.3801,26.96,80,96,1.92,ID,1684792064
420,Ceeldheer,3.8488,47.1806,26.72,85,18,5.03,SO,1684792064
421,Vila Velha,-20.3297,-40.2925,23.3,87,20,2.57,BR,1684792064
422,Luís Correia,-2.8792,-41.6669,26.56,86,82,2.05,BR,1684792065
423,Mazamari,-11.3258,-74.5308,24.99,90,81,0.31,PE,1684792065
424,Lae,-6.7221,146.9847,23.37,86,100,3.29,PG,1684792065
425,Jatiroto,-7.8833,111.1167,20.66,88,5,0.93,ID,1684792065
426,Mytilene,39.11,26.5547,17.9,82,20,1.54,GR,1684792065
427,Kabare,-2.4683,28.8242,15.73,94,52,0.13,CD,1684792065
428,La Descubierta,18.5705,-71.7297,28.57,73,53,0.49,DO,1684792065
429,Ivdel',60.6911,60.4206,10.17,93,7,1.23,RU,1684792066
430,Port Saint John's,-31.6229,29.5448,14.6,77,78,2.82,ZA,1684792066
431,Antofagasta,-23.65,-70.4,17.6,84,34,2.33,CL,1684791963
432,Barranca,-10.75,-77.7667,22.33,74,64,4.65,PE,1684792066
433,Betioky,-23.7167,44.3833,17.08,87,3,1.17,MG,1684792066
434,Sunne,59.8376,13.143,15.23,93,70,0.62,SE,1684792066
435,Ferkessédougou,9.6,-5.2,24.68,86,60,3.0,CI,1684792066
436,Codajás,-3.8367,-62.0569,25.52,94,23,1.28,BR,1684792066
437,Luxor,25.6989,32.6421,33.03,18,75,4.12,EG,1684792066
438,Acajutla,13.5928,-89.8275,30.51,64,93,3.3,SV,1684792067
439,Holualoa,19.6228,-155.9522,23.91,88,100,4.63,US,1684792067
440,East London,-33.0153,27.9116,14.6,69,100,4.15,ZA,1684792067
441,Teguise,29.0605,-13.564,18.12,73,40,3.6,ES,1684792067
442,Arrondissement de la Basse-Terre,16.1667,-61.6667,26.58,74,40,5.14,GP,1684792067
443,Horta,38.5333,-28.6333,17.23,80,12,4.47,PT,1684792067
444,Palmer,42.1584,-72.3287,22.75,41,75,2.06,US,1684792067
445,Ingeniero Guillermo N. Juárez,-23.9,-61.85,23.52,81,97,0.67,AR,1684792067
446,Piaçabuçu,-10.4056,-36.4344,24.68,89,77,4.14,BR,1684792067
447,Port Hedland,-20.3167,118.5667,14.03,41,68,3.6,AU,1684792068
448,Banff,51.1762,-115.5698,19.57,55,100,1.54,CA,1684791918
449,Cologne,50.9333,6.95,17.75,79,20,2.06,DE,1684792068
450,Acaraú,-2.8856,-40.12,26.25,88,85,4.41,BR,1684792068
451,Aoulef,26.9667,1.0833,26.51,11,14,3.69,DZ,1684792068
452,Baruun-Urt,46.6806,113.2792,11.7,30,80,3.62,MN,1684792068
453,Laojunmiao,39.8333,97.7333,11.93,36,2,2.92,CN,1684792068
454,Zouérat,22.7187,-12.4521,24.2,24,98,6.17,MR,1684792068
455,Merizo Village,13.2658,144.6691,27.85,97,100,10.35,GU,1684792069
456,Cold Lake,54.4502,-110.2017,26.97,34,100,10.8,CA,1684792069
457,Bairnsdale,-37.8333,147.6167,7.25,88,40,0.45,AU,1684792069
458,Powell,40.1578,-83.0752,26.73,37,0,2.06,US,1684792069
459,Naze,28.3667,129.4833,18.51,74,72,7.79,JP,1684792069
460,Vernon,50.2581,-119.2691,13.75,77,100,4.92,CA,1684791815
461,Weno,7.4515,151.8468,28.97,84,100,5.14,FM,1684792069
462,Dedza,-14.3779,34.3332,15.24,58,67,0.26,MW,1684792069
463,Akureyri,65.6835,-18.0878,8.96,43,40,3.6,IS,1684792069
464,Pandan,14.0453,124.1694,26.82,84,71,2.18,PH,1684792070
465,Bakanas,44.8081,76.2772,16.53,25,82,3.75,KZ,1684792070
466,Bougouni,11.417,-7.479,28.0,61,96,2.52,ML,1684792070
467,Sarrebourg,48.7333,7.05,17.34,96,89,1.47,FR,1684792070
468,Price,39.5994,-110.8107,26.59,21,0,4.12,US,1684792070
469,Fuling,29.7022,107.3919,15.15,96,100,0.52,CN,1684792070
470,Cannonvale,-20.2833,148.7,19.66,73,85,7.54,AU,1684792070
471,Troitsko-Pechorsk,62.7084,56.1964,9.69,89,29,1.06,RU,1684792070
472,Villanueva de Córdoba,38.3228,-4.6287,9.86,95,100,0.53,ES,1684792071
473,Kyren,51.6828,102.1408,7.04,80,100,0.31,RU,1684792071
474,Kismayo,-0.3582,42.5454,26.92,86,28,6.42,SO,1684792071
475,Kencong,-8.2833,113.3667,21.84,91,2,1.05,ID,1684792071
476,Cooma,-36.2333,149.1333,3.36,67,0,0.59,AU,1684792071
477,Filingué,14.3521,3.3168,31.48,47,100,4.09,NE,1684792071
478,Thunder Bay,48.4001,-89.3168,13.95,47,100,5.14,CA,1684791801
479,Hotan,37.0997,79.9269,21.05,14,5,0.5,CN,1684792071
480,Santa Maria da Vitória,-13.3947,-44.1886,23.67,46,5,1.41,BR,1684792071
481,Mabaruma,8.2,-59.7833,25.0,100,75,0.0,GY,1684792072
482,Zarghūn Shahr,32.8473,68.4457,18.99,40,95,1.71,AF,1684792072
483,Tomatlán,19.9333,-105.25,33.52,46,66,4.74,MX,1684792072
484,Kez,57.8979,53.7152,11.95,86,69,0.21,RU,1684792072
485,Kruisfontein,-34.0033,24.7314,13.27,75,100,2.81,ZA,1684792072
486,Paita,-5.0892,-81.1144,25.02,75,37,7.53,PE,1684792072
487,Sisimiut,66.9395,-53.6735,-1.06,74,16,8.96,GL,1684791837
488,Yelizovo,53.1873,158.3805,1.08,100,100,4.02,RU,1684792072
489,Padangsidempuan,1.3667,99.2667,22.15,98,100,0.75,ID,1684792073
490,Taseyevo,57.2169,94.8978,6.75,87,97,1.68,RU,1684792073
491,Acapulco de Juárez,16.8634,-99.8901,32.9,66,75,2.06,MX,1684792073
492,Vandergrift,40.6028,-79.5648,26.64,26,3,1.33,US,1684792073
493,Nyurba,63.2842,118.3319,4.07,51,96,2.79,RU,1684792073
494,Wildwood,38.5828,-90.6629,27.5,37,0,3.13,US,1684792001
495,Swakopmund,-22.6833,14.5333,12.77,90,3,0.45,NA,1684792073
496,La Sarre,48.8002,-79.1996,15.1,35,89,1.93,CA,1684792073
497,Arica,-18.475,-70.3042,22.75,73,0,4.12,CL,1684791892
498,Chadron,42.8294,-102.9999,28.31,34,0,4.12,US,1684792073
499,Armação de Búzios,-22.7469,-41.8817,23.03,86,97,5.0,BR,1684792074
500,Nushki,29.5542,66.0215,26.33,29,56,1.98,PK,1684791857
501,Arroio do Meio,-29.4011,-51.945,20.17,90,21,0.96,BR,1684792054
502,Klyuchi,52.2667,79.1667,13.93,49,71,3.37,RU,1684792074
503,Kuruman,-27.4524,23.4325,11.31,30,47,2.01,ZA,1684792074
504,Kendari,-3.945,122.4989,23.05,95,71,1.04,ID,1684792074
505,Poxoréo,-15.8372,-54.3892,24.46,54,82,1.69,BR,1684792074
506,San Patricio,28.017,-97.5169,32.87,61,82,2.82,US,1684792074
507,El Granada,37.5027,-122.4694,30.45,68,20,5.66,US,1684791794
508,Pointe-Noire,-4.7761,11.8635,24.73,85,88,1.85,CG,1684792075
509,Jalandhar,31.3256,75.5792,28.86,64,1,1.8,IN,1684792075
510,Shatura,55.5725,39.5368,14.18,82,100,1.89,RU,1684792075
511,Gualeguaychú,-33.0094,-58.5172,17.72,94,100,2.49,AR,1684792075
512,Kavieng,-2.5744,150.7967,28.24,79,96,8.61,PG,1684791826
513,Paea,-17.6833,-149.5833,29.84,70,40,1.54,PF,1684792075
514,Ulladulla,-35.35,150.4667,9.58,69,1,2.34,AU,1684791833
515,Al Bardīyah,31.7561,25.0865,19.01,79,0,2.44,LY,1684792075
516,La Mira,18.035,-102.3266,31.4,59,8,5.42,MX,1684792075
517,Puerto Escondido,15.85,-97.0667,33.46,62,20,6.17,MX,1684792076
518,Khandyga,62.6667,135.6,3.36,61,81,1.8,RU,1684792076
519,Muroto-misakicho,33.2833,134.15,18.11,90,100,5.56,JP,1684792076
520,Jaranwala,31.3333,73.4333,31.03,30,44,1.19,PK,1684792076
521,Iwaki,37.05,140.8833,13.76,96,100,3.22,JP,1684792076
522,Jaitāran,26.2031,73.9364,30.33,30,47,5.28,IN,1684792076
523,Al Jawf,29.5,38.75,26.98,19,15,3.0,SA,1684792076
524,Ataq,14.5377,46.8319,23.71,64,13,4.83,YE,1684792076
525,Laguna,38.421,-121.4238,34.63,30,0,1.54,US,1684791798
526,Mahibadhoo,3.7833,72.9667,28.38,73,9,1.84,MV,1684792077
527,Ryōtsu-minato,38.0833,138.4333,14.42,80,100,1.49,JP,1684792077
528,St. John's,47.5649,-52.7093,4.26,89,100,6.17,CA,1684791817
529,Luganville,-15.5333,167.1667,27.04,84,100,2.34,VU,1684792077
530,Tyuratam,45.6507,63.3156,21.62,37,94,7.3,KZ,1684792077
531,Colgong,25.2667,87.2167,29.26,63,53,4.74,IN,1684792077
532,Hasaki,35.7333,140.8333,15.68,87,100,8.34,JP,1684792077
533,Charlottetown,46.2352,-63.1267,8.29,60,75,5.14,CA,1684791823
534,Nguigmi,14.2495,13.1092,32.42,40,16,2.9,NE,1684791862
535,Tazacorte,28.629,-17.9293,19.54,84,0,4.63,ES,1684792078
536,Margate,51.3813,1.3862,13.83,70,1,4.47,GB,1684792078
537,Mount Sterling,38.0565,-83.9433,24.66,35,0,4.12,US,1684791945
538,Shingū,33.7333,135.9833,18.74,87,100,2.04,JP,1684792078
539,San Rafael del Sur,11.8485,-86.4384,35.54,48,100,0.52,NI,1684792078
540,Novy Urengoy,66.0833,76.6333,3.15,94,54,5.54,RU,1684792078
541,Mastung,29.7994,66.845,23.38,30,98,1.87,PK,1684792078
542,Arkhangelsk,64.5401,40.5433,13.13,52,73,1.77,RU,1684792078
543,Gizo Government Station,-8.103,156.8419,28.26,75,100,1.89,SB,1684792079
544,Asău,46.4333,26.4,11.51,80,3,2.43,RO,1684792079
545,Santa Marta de Ortigueira,43.6833,-7.85,15.14,86,88,0.45,ES,1684792079
546,Cidreira,-30.1811,-50.2056,19.48,86,81,2.92,BR,1684792079
547,Sarangani,5.4033,125.4636,28.4,79,23,6.22,PH,1684792079
548,Kuusamo,65.9667,29.1833,15.02,51,0,1.54,FI,1684792079
549,Uttarkāshi,30.7333,78.45,20.76,35,39,3.53,IN,1684792079
550,Mountain Home,43.133,-115.6912,22.71,33,40,8.94,US,1684792079
551,Hassi Messaoud,31.6804,6.0729,27.92,10,0,1.03,DZ,1684792080
552,Ola,59.5833,151.2833,6.19,73,100,4.55,RU,1684791794
553,Kodinsk,58.6881,99.1844,5.58,76,99,1.47,RU,1684792080
554,Uren',57.4552,45.7852,13.61,81,100,2.3,RU,1684792080
555,Pariaman,-0.619,100.12,24.78,89,98,1.66,ID,1684792080
556,Tripoli,32.8752,13.1875,19.2,74,0,4.45,LY,1684792080
557,Kerikeri,-35.2268,173.9474,14.95,96,63,1.79,NZ,1684792080
558,Şurmān,32.7567,12.5716,20.3,66,0,5.61,LY,1684792080
559,Maceió,-9.6658,-35.7353,24.69,94,75,1.54,BR,1684792080
560,Yuanping,38.7153,112.7575,12.15,38,45,0.29,CN,1684792081
561,Plastun,44.7561,136.2939,10.95,73,8,1.07,RU,1684792081
562,Luanco,43.6152,-5.7934,15.71,93,100,2.48,ES,1684792081
563,Kangding,30.0513,101.9603,10.24,90,100,3.24,CN,1684792081
564,Villa Gesell,-37.2639,-56.973,14.47,92,96,3.77,AR,1684792081
565,Salinópolis,-0.6136,-47.3561,26.89,85,74,4.45,BR,1684792081
566,Kill Devil Hills,36.0307,-75.676,21.0,75,0,5.66,US,1684792081
567,Valparaíso,-33.0393,-71.6273,17.78,81,75,2.57,CL,1684792080
568,Nha Trang,12.25,109.1833,27.0,81,90,2.25,VN,1684792082
569,Neftekamsk,56.092,54.2703,14.31,52,48,1.4,RU,1684792082
570,Taxisco,14.0708,-90.4631,30.62,56,100,3.07,GT,1684792082
571,Fuxin,42.0156,121.6589,17.8,33,13,1.4,CN,1684792083
572,Qingyang,37.4958,121.2581,17.59,38,1,3.36,CN,1684792083
573,Bytów,54.1706,17.4919,11.23,73,89,2.5,PL,1684792083
574,Golyshmanovo,56.3979,68.3728,13.44,43,55,1.11,RU,1684792084
575,Zirǝ,40.3661,50.2917,18.05,72,100,3.41,AZ,1684792085
576,São Pedro,-22.5486,-47.9139,17.27,68,82,0.75,BR,1684791809
577,Chivhu,-19.0211,30.8922,12.9,68,20,4.27,ZW,1684792086
